{"type":"FeatureCollection","features":[{"type":"Feature","properties":{"name":"Berlin","description":"26. August – 15:00 – Brandenburger Tor\nhttps://www.facebook.com/events/302522820521772/","_storage_options":{"color":"DarkOrchid"}},"geometry":{"type":"Point","coordinates":[13.377785682678224,52.516260037262676]}},{"type":"Feature","properties":{"_storage_options":{"color":"DarkOrchid"},"name":"Graz","description":"26. August – 15.00 – Schloßbergplatz\nhttps://epicenter.works/content/saveyourinternet-aktionstag-am-26-august-2018"},"geometry":{"type":"Point","coordinates":[15.436230897903444,47.072759744403804]}},{"type":"Feature","properties":{"_storage_options":{"color":"DarkOrchid"},"name":"Hamburg","description":"26. August – 17:00 – Mönkebergbrunnen"},"geometry":{"type":"Point","coordinates":[9.995844127843158,53.54583985016114]}},{"type":"Feature","properties":{"_storage_options":{"color":"DarkOrchid"},"name":"Helsinki","description":"August 26 – details TBA"},"geometry":{"type":"Point","coordinates":[24.941411018371582,60.17061345472757]}},{"type":"Feature","properties":{"_storage_options":{"color":"DarkOrchid"},"name":"Innsbruck","description":"August 26 – details TBA\nhttps://epicenter.works/content/saveyourinternet-aktionstag-am-26-august-2018"},"geometry":{"type":"Point","coordinates":[11.401040554046633,47.26328620044787]}},{"type":"Feature","properties":{"_storage_options":{"color":"DarkOrchid"},"name":"Katowice","description":"August 26 – 18:00 – Rynek\nhttps://www.facebook.com/events/1736159829808663/"},"geometry":{"type":"Point","coordinates":[19.02205467224121,50.2594705020705]}},{"type":"Feature","properties":{"_storage_options":{"color":"DarkOrchid"},"name":"Kraków","description":"August 26 – 18:00 – Rynek Główny\nhttps://www.facebook.com/events/1849272128711784/"},"geometry":{"type":"Point","coordinates":[19.936913251876835,50.062159984202495]}},{"type":"Feature","properties":{"_storage_options":{"color":"DarkOrchid"},"name":"Linz","description":"August 26 – details TBA\nhttps://epicenter.works/content/saveyourinternet-aktionstag-am-26-august-2018"},"geometry":{"type":"Point","coordinates":[14.286067485809328,48.306490897851766]}},{"type":"Feature","properties":{"name":"Ljubljana","description":"August 26 - 11:00 – Prešernov trg\nhttps://www.facebook.com/events/287052418770178/","_storage_options":{"color":"DarkOrchid"}},"geometry":{"type":"Point","coordinates":[14.506040811538698,46.05143320207181]}},{"type":"Feature","properties":{"_storage_options":{"color":"DarkOrchid"},"name":"Lodz","description":"August 26 – 18:00 – Plac Wolności\nhttps://www.facebook.com/events/2171593299790462/"},"geometry":{"type":"Point","coordinates":[19.460220336914066,51.763165413548094]}},{"type":"Feature","properties":{"_storage_options":{"color":"DarkOrchid"},"name":"Lund","description":"August 26 – Details TBA"},"geometry":{"type":"Point","coordinates":[13.1866192817688,55.70693740022883]}},{"type":"Feature","properties":{"name":"Mainz","description":"25. August – 11:00 – Hauptbahnhof\nhttps://www.facebook.com/events/221208678595160/","_storage_options":{"color":"DarkOrchid"}},"geometry":{"type":"Point","coordinates":[8.25974464416504,50.001257040062114]}},{"type":"Feature","properties":{"name":"München","description":"26. August – 13:00 – Marienplatz\nhttps://www.facebook.com/events/423899521423389/","_storage_options":{"color":"DarkOrchid"}},"geometry":{"type":"Point","coordinates":[11.57613515853882,48.138198647757676]}},{"type":"Feature","properties":{"_storage_options":{"color":"DarkOrchid"},"name":"Paris","description":"Details TBA"},"geometry":{"type":"Point","coordinates":[2.350387573242188,48.85522811385678]}},{"type":"Feature","properties":{"name":"Praha","description":"August 26 – Details TBA","_storage_options":{"color":"DarkOrchid"}},"geometry":{"type":"Point","coordinates":[14.420714378356935,50.08755414688996]}},{"type":"Feature","properties":{"_storage_options":{"color":"DarkOrchid"},"name":"Stockholm","description":"August 26 – 12:00 – Raoul Wallenbergs Torg\nhttps://www.facebook.com/events/1131726740311531/"},"geometry":{"type":"Point","coordinates":[18.057682514190677,59.329960683145174]}},{"type":"Feature","properties":{"name":"Stuttgart","description":"26. August – 14:00 – Marienplatz\nhttps://www.facebook.com/events/503638343421717/","_storage_options":{"color":"DarkOrchid"}},"geometry":{"type":"Point","coordinates":[9.17888402938843,48.77887427753054]}},{"type":"Feature","properties":{"name":"Warszawa","description":"August 26 – 16:00 – Plac Defilad\nhttps://www.facebook.com/events/2035752230086477/","_storage_options":{"color":"DarkOrchid"}},"geometry":{"type":"Point","coordinates":[21.008251905441288,52.231834238039944]}},{"type":"Feature","properties":{"_storage_options":{"color":"DarkOrchid"},"name":"Wien","description":"26. August – 15.00 – Stephansplatz\nhttps://epicenter.works/content/saveyourinternet-aktionstag-am-26-august-2018"},"geometry":{"type":"Point","coordinates":[16.372289657592777,48.20841626078854]}},{"type":"Feature","properties":{"_storage_options":{"color":"DarkOrchid"},"name":"Wrocław","description":"August 26 – 18:00 – Rynek, 50-101 Wrocław, Polska\nhttps://www.facebook.com/events/208686879796389/"},"geometry":{"type":"Point","coordinates":[17.033314704895023,51.109988817459296]}}]}
